ATTITUDE {time_boot_ms : 826609, roll : -0.08875733613967896, pitch : -0.023327521979808807, yaw : -2.2102503776550293, rollspeed : 0.0005495492368936539, pitchspeed : 0.0006967633962631226, yawspeed : -0.00020922406110912561}
ATTITUDE {time_boot_ms : 826659, roll : -0.08873527497053146, pitch : -0.023342575877904892, yaw : -2.210261583328247, rollspeed : -0.00013631652109324932, pitchspeed : -0.0002955430536530912, yawspeed : 0.00043581455247476697}
ATTITUDE {time_boot_ms : 826709, roll : -0.08874055743217468, pitch : -0.023324739187955856, yaw : -2.2102885246276855, rollspeed : 6.096367724239826e-05, pitchspeed : 0.000575695070438087, yawspeed : -0.0007990660960786045}
ATTITUDE {time_boot_ms : 826759, roll : -0.08872806280851364, pitch : -0.02334883064031601, yaw : -2.2103023529052734, rollspeed : -0.0002233374398201704, pitchspeed : 0.0002786915865726769, yawspeed : 0.0002963475417345762}
ATTITUDE {time_boot_ms : 826809, roll : -0.0887531265616417, pitch : -0.02330853044986725, yaw : -2.2102770805358887, rollspeed : 0.0006197432521730661, pitchspeed : 0.0007434340659528971, yawspeed : 0.0008480855030938983}
ATTITUDE {time_boot_ms : 826859, roll : -0.0887078195810318, pitch : -0.023309215903282166, yaw : -2.210296392440796, rollspeed : 0.001377158798277378, pitchspeed : -0.0008427557768300176, yawspeed : 9.469053475186229e-05}
ATTITUDE {time_boot_ms : 826910, roll : -0.08865879476070404, pitch : -0.023383047431707382, yaw : -2.2102832794189453, rollspeed : 0.0014640222070738673, pitchspeed : -0.0012391108321025968, yawspeed : 0.00034933106508105993}
ATTITUDE {time_boot_ms : 826960, roll : -0.08866969496011734, pitch : -0.023391705006361008, yaw : -2.210252285003662, rollspeed : -0.0013444202486425638, pitchspeed : 0.00038965174462646246, yawspeed : 0.0013667263556271791}
ATTITUDE {time_boot_ms : 827010, roll : -0.08863653987646103, pitch : -0.023357760161161423, yaw : -2.210258722305298, rollspeed : 0.00029679411090910435, pitchspeed : 0.0009153633145615458, yawspeed : -0.00035089574521407485}
ATTITUDE {time_boot_ms : 827060, roll : -0.0886470228433609, pitch : -0.023332148790359497, yaw : -2.2102205753326416, rollspeed : -0.0009259080979973078, pitchspeed : 0.000628709327429533, yawspeed : 0.0007480315398424864}
ATTITUDE {time_boot_ms : 827109, roll : -0.08864865452051163, pitch : -0.023342307657003403, yaw : -2.2102203369140625, rollspeed : -0.0005389072466641665, pitchspeed : 5.5593118304386735e-05, yawspeed : 0.00032100832322612405}
ATTITUDE {time_boot_ms : 827160, roll : -0.08866176754236221, pitch : -0.023343265056610107, yaw : -2.210211753845215, rollspeed : -0.00034744967706501484, pitchspeed : -0.00048603827599436045, yawspeed : 0.0004253422375768423}
ATTITUDE {time_boot_ms : 827209, roll : -0.08864612877368927, pitch : -0.023359287530183792, yaw : -2.210212230682373, rollspeed : -0.0008766481187194586, pitchspeed : -0.0006224798271432519, yawspeed : 0.0002933880896307528}
ATTITUDE {time_boot_ms : 827259, roll : -0.08861953765153885, pitch : -0.02336033433675766, yaw : -2.2102131843566895, rollspeed : 0.0008177489507943392, pitchspeed : -0.0002436754002701491, yawspeed : 0.00010297080734744668}
ATTITUDE {time_boot_ms : 827309, roll : -0.0886094868183136, pitch : -0.02332892268896103, yaw : -2.210212469100952, rollspeed : -0.0002375822514295578, pitchspeed : 0.0009808712638914585, yawspeed : 0.00020193704403936863}
ATTITUDE {time_boot_ms : 827359, roll : -0.08863110095262527, pitch : -0.02331709861755371, yaw : -2.2102065086364746, rollspeed : 0.0007062572985887527, pitchspeed : 0.0004388231900520623, yawspeed : 0.000196153880096972}
ATTITUDE {time_boot_ms : 827410, roll : -0.0886436328291893, pitch : -0.023335900157690048, yaw : -2.2102177143096924, rollspeed : -0.00035255146212875843, pitchspeed : 0.0001402854104526341, yawspeed : -0.0008327806135639548}
ATTITUDE {time_boot_ms : 827461, roll : -0.08861872553825378, pitch : -0.023339994251728058, yaw : -2.2102270126342773, rollspeed : 0.0005006869323551655, pitchspeed : 0.000556753424461931, yawspeed : 0.00028314581140875816}
ATTITUDE {time_boot_ms : 827509, roll : -0.08862222731113434, pitch : -0.023321349173784256, yaw : -2.2102460861206055, rollspeed : -0.00018353969790041447, pitchspeed : 0.0008616773411631584, yawspeed : -0.0007008467800915241}
ATTITUDE {time_boot_ms : 827559, roll : -0.08863277733325958, pitch : -0.023303493857383728, yaw : -2.210240125656128, rollspeed : 0.0007768254727125168, pitchspeed : -6.424702587537467e-05, yawspeed : 0.0001414463040418923}
ATTITUDE {time_boot_ms : 827609, roll : -0.08864810317754745, pitch : -0.02332919090986252, yaw : -2.210249900817871, rollspeed : -0.00019942247308790684, pitchspeed : -0.00030222974601201713, yawspeed : -0.0007584640407003462}
ATTITUDE {time_boot_ms : 827659, roll : -0.0886235311627388, pitch : -0.02332378923892975, yaw : -2.2102549076080322, rollspeed : 0.0007396357832476497, pitchspeed : 0.00030999252339825034, yawspeed : -2.6605615857988596e-05}
ATTITUDE {time_boot_ms : 827710, roll : -0.08860354125499725, pitch : -0.023335639387369156, yaw : -2.2102720737457275, rollspeed : 6.438000127673149e-05, pitchspeed : 7.608765736222267e-05, yawspeed : -0.0005004042759537697}
ATTITUDE {time_boot_ms : 827759, roll : -0.08862051367759705, pitch : -0.02334454283118248, yaw : -2.2102584838867188, rollspeed : -1.3783341273665428e-05, pitchspeed : -0.0006760155083611608, yawspeed : 0.0006448893109336495}
ATTITUDE {time_boot_ms : 827809, roll : -0.08863615989685059, pitch : -0.023342203348875046, yaw : -2.210259199142456, rollspeed : -1.115468330681324e-05, pitchspeed : 0.0002944606530945748, yawspeed : -0.00033888622419908643}
ATTITUDE {time_boot_ms : 827859, roll : -0.08865877985954285, pitch : -0.023329265415668488, yaw : -2.2102599143981934, rollspeed : -0.0002523665316402912, pitchspeed : -8.212029933929443e-05, yawspeed : 0.00039917294634506106}
ATTITUDE {time_boot_ms : 827909, roll : -0.08863689005374908, pitch : -0.023333679884672165, yaw : -2.2102394104003906, rollspeed : 0.0005571444053202868, pitchspeed : 4.215733497403562e-05, yawspeed : 0.0011018359800800681}
ATTITUDE {time_boot_ms : 827959, roll : -0.08862481266260147, pitch : -0.02332388237118721, yaw : -2.2102253437042236, rollspeed : 0.00015551317483186722, pitchspeed : 0.0007211357005871832, yawspeed : 0.00046909984666854143}
ATTITUDE {time_boot_ms : 828009, roll : -0.08864783495664597, pitch : -0.023331180214881897, yaw : -2.2102150917053223, rollspeed : -0.0008084338624030352, pitchspeed : -0.00021348035079427063, yawspeed : 0.0004030742566101253}
ATTITUDE {time_boot_ms : 828059, roll : -0.0886259451508522, pitch : -0.023325897753238678, yaw : -2.2101900577545166, rollspeed : 0.0005743282381445169, pitchspeed : 0.00020216734264977276, yawspeed : 0.0003552676644176245}
ATTITUDE {time_boot_ms : 828112, roll : -0.08865096420049667, pitch : -0.023345623165369034, yaw : -2.2101993560791016, rollspeed : 5.646958015859127e-05, pitchspeed : -0.0010625385912135243, yawspeed : 8.42496519908309e-05}
ATTITUDE {time_boot_ms : 828159, roll : -0.08862215280532837, pitch : -0.023336686193943024, yaw : -2.2102088928222656, rollspeed : 0.000676593859679997, pitchspeed : 0.0006746294675394893, yawspeed : 3.7587713450193405e-05}
ATTITUDE {time_boot_ms : 828209, roll : -0.08865467458963394, pitch : -0.02330036088824272, yaw : -2.210200786590576, rollspeed : -0.0007528206333518028, pitchspeed : 0.00011360930511727929, yawspeed : 0.00032621005084365606}
ATTITUDE {time_boot_ms : 828259, roll : -0.08863422274589539, pitch : -0.023277107626199722, yaw : -2.2102160453796387, rollspeed : 0.0005398377543315291, pitchspeed : -0.00018385978182777762, yawspeed : -0.00015070900553837419}
ATTITUDE {time_boot_ms : 828309, roll : -0.08865740150213242, pitch : -0.023255638778209686, yaw : -2.2102041244506836, rollspeed : -0.0006116160657256842, pitchspeed : 0.0002611213130876422, yawspeed : 0.0009985388023778796}
ATTITUDE {time_boot_ms : 828359, roll : -0.08866776525974274, pitch : -0.023269332945346832, yaw : -2.2102010250091553, rollspeed : -0.00011367769911885262, pitchspeed : -0.000543645117431879, yawspeed : 0.00028626754647120833}
ATTITUDE {time_boot_ms : 828409, roll : -0.08864905685186386, pitch : -0.02328517660498619, yaw : -2.2101998329162598, rollspeed : 0.00038857595063745975, pitchspeed : -0.00022665501455776393, yawspeed : 9.702041279524565e-05}
ATTITUDE {time_boot_ms : 828459, roll : -0.08871782571077347, pitch : -0.02326725423336029, yaw : -2.2101945877075195, rollspeed : -0.0019176946952939034, pitchspeed : 0.00015439149865414947, yawspeed : -9.37393051572144e-05}
ATTITUDE {time_boot_ms : 828509, roll : -0.08869697153568268, pitch : -0.023278117179870605, yaw : -2.2101998329162598, rollspeed : 0.0004900473868474364, pitchspeed : -1.6812555259093642e-05, yawspeed : -9.890401270240545e-05}
ATTITUDE {time_boot_ms : 828559, roll : -0.08869259804487228, pitch : -0.02328147366642952, yaw : -2.2102091312408447, rollspeed : -0.00023404485546052456, pitchspeed : 0.0002635662676766515, yawspeed : -0.00028272223426029086}
ATTITUDE {time_boot_ms : 828610, roll : -0.08871454000473022, pitch : -0.023272551596164703, yaw : -2.210221529006958, rollspeed : -0.0004739768337458372, pitchspeed : 0.000488955294713378, yawspeed : 0.0003872147062793374}
ATTITUDE {time_boot_ms : 828660, roll : -0.08874448388814926, pitch : -0.023295696824789047, yaw : -2.2102346420288086, rollspeed : -0.00048565585166215897, pitchspeed : -0.0004627250600606203, yawspeed : 0.00010733824456110597}
ATTITUDE {time_boot_ms : 828709, roll : -0.08874990046024323, pitch : -0.0233008973300457, yaw : -2.210251569747925, rollspeed : -0.0005722949281334877, pitchspeed : -0.0005050166510045528, yawspeed : -0.0007654016371816397}
ATTITUDE {time_boot_ms : 828762, roll : -0.08874586969614029, pitch : -0.023343190550804138, yaw : -2.210224151611328, rollspeed : 0.0004194874782115221, pitchspeed : -0.0009909438667818904, yawspeed : 0.0004746138583868742}
ATTITUDE {time_boot_ms : 828809, roll : -0.08874277025461197, pitch : -0.023375414311885834, yaw : -2.2102243900299072, rollspeed : -6.057322025299072e-05, pitchspeed : -0.0009338532108813524, yawspeed : 0.00031190586742013693}
ATTITUDE {time_boot_ms : 828859, roll : -0.08876662701368332, pitch : -0.023375101387500763, yaw : -2.2102208137512207, rollspeed : -6.790226325392723e-05, pitchspeed : 6.289439625106752e-05, yawspeed : 0.00017034605843946338}
ATTITUDE {time_boot_ms : 828909, roll : -0.0887548178434372, pitch : -0.02336302027106285, yaw : -2.2102365493774414, rollspeed : 0.0006407349137589335, pitchspeed : 0.00046457949792966247, yawspeed : -0.00012794759823009372}
ATTITUDE {time_boot_ms : 828959, roll : -0.08875250816345215, pitch : -0.02335333451628685, yaw : -2.210217237472534, rollspeed : -0.00017322879284620285, pitchspeed : 0.0002702576166484505, yawspeed : 0.00025775382528081536}
ATTITUDE {time_boot_ms : 829009, roll : -0.08874017000198364, pitch : -0.023327961564064026, yaw : -2.2102229595184326, rollspeed : -0.0008614242542535067, pitchspeed : 0.0009057836723513901, yawspeed : -4.560290835797787e-05}
ATTITUDE {time_boot_ms : 829059, roll : -0.08871916681528091, pitch : -0.02328767627477646, yaw : -2.210232734680176, rollspeed : 0.00036635342985391617, pitchspeed : 0.0009090738603845239, yawspeed : 0.0002621958847157657}
ATTITUDE {time_boot_ms : 829112, roll : -0.08875679224729538, pitch : -0.023280423134565353, yaw : -2.210207939147949, rollspeed : -0.0006389457266777754, pitchspeed : -0.00018740122322924435, yawspeed : 0.001485738204792142}
ATTITUDE {time_boot_ms : 829159, roll : -0.0887540653347969, pitch : -0.023271165788173676, yaw : -2.2102246284484863, rollspeed : -0.00032962323166429996, pitchspeed : 0.00020421281806193292, yawspeed : -0.00034359877463430166}
ATTITUDE {time_boot_ms : 829209, roll : -0.08878836780786514, pitch : -0.023279819637537003, yaw : -2.210209369659424, rollspeed : -0.0007279128767549992, pitchspeed : -0.00020784712978638709, yawspeed : 0.000481906725326553}
ATTITUDE {time_boot_ms : 829259, roll : -0.08878205716609955, pitch : -0.02327393740415573, yaw : -2.2102091312408447, rollspeed : -0.000235765241086483, pitchspeed : 5.116348620504141e-05, yawspeed : 0.0005515535594895482}
ATTITUDE {time_boot_ms : 829309, roll : -0.08876492828130722, pitch : -0.023263078182935715, yaw : -2.2102108001708984, rollspeed : 0.0001900545321404934, pitchspeed : 0.0007180944667197764, yawspeed : -0.00030833244090899825}
ATTITUDE {time_boot_ms : 829359, roll : -0.08876315504312515, pitch : -0.02324310690164566, yaw : -2.210205316543579, rollspeed : 0.00029108382295817137, pitchspeed : 0.0005283190403133631, yawspeed : 0.0007567506399936974}
ATTITUDE {time_boot_ms : 829409, roll : -0.0887468159198761, pitch : -0.023241601884365082, yaw : -2.2101945877075195, rollspeed : 0.00033409043680876493, pitchspeed : -0.0005200453451834619, yawspeed : -0.00031623162794858217}
ATTITUDE {time_boot_ms : 829459, roll : -0.0887083113193512, pitch : -0.023271039128303528, yaw : -2.2102034091949463, rollspeed : 0.00037806236650794744, pitchspeed : -0.0014988248003646731, yawspeed : 0.00023636978585273027}
ATTITUDE {time_boot_ms : 829509, roll : -0.08870241791009903, pitch : -0.023345910012722015, yaw : -2.2101998329162598, rollspeed : 0.0004486088873818517, pitchspeed : -0.0013215887593105435, yawspeed : -0.00048540032003074884}
ATTITUDE {time_boot_ms : 829559, roll : -0.08869479596614838, pitch : -0.02337171509861946, yaw : -2.2102103233337402, rollspeed : 0.0011644377373158932, pitchspeed : 6.049044895917177e-05, yawspeed : -6.946426583454013e-05}
ATTITUDE {time_boot_ms : 829609, roll : -0.0886702761054039, pitch : -0.023262713104486465, yaw : -2.210205554962158, rollspeed : -0.00023083644919097424, pitchspeed : 0.003016095142811537, yawspeed : 0.00025903317146003246}
ATTITUDE {time_boot_ms : 829659, roll : -0.08869209885597229, pitch : -0.023225557059049606, yaw : -2.2101972103118896, rollspeed : -0.0006715224590152502, pitchspeed : 0.00044485757825896144, yawspeed : 0.0004353526746854186}
ATTITUDE {time_boot_ms : 829709, roll : -0.08866163343191147, pitch : -0.023200996220111847, yaw : -2.2101998329162598, rollspeed : -0.00011673290282487869, pitchspeed : 0.0008536588284187019, yawspeed : 0.000152915483340621}
ATTITUDE {time_boot_ms : 829759, roll : -0.08861269801855087, pitch : -0.02324051409959793, yaw : -2.2101922035217285, rollspeed : 0.00091880455147475, pitchspeed : -0.00043089280370622873, yawspeed : -0.0007441980997100472}
ATTITUDE {time_boot_ms : 829809, roll : -0.08863282203674316, pitch : -0.023193299770355225, yaw : -2.210195779800415, rollspeed : -0.0005786584224551916, pitchspeed : 0.0011520198313519359, yawspeed : 6.88910367898643e-05}
ATTITUDE {time_boot_ms : 829860, roll : -0.08863063901662827, pitch : -0.02318081632256508, yaw : -2.2101948261260986, rollspeed : -0.00020094122737646103, pitchspeed : 0.0003028808278031647, yawspeed : 0.00011082860874012113}
ATTITUDE {time_boot_ms : 829910, roll : -0.08862191438674927, pitch : -0.02316001057624817, yaw : -2.210207939147949, rollspeed : 0.00023774662986397743, pitchspeed : 0.0006457126000896096, yawspeed : -0.0006836893153376877}
ATTITUDE {time_boot_ms : 829959, roll : -0.08860716968774796, pitch : -0.023127231746912003, yaw : -2.2101993560791016, rollspeed : 0.00033993145916610956, pitchspeed : 0.0004077869816683233, yawspeed : 0.0003241468803025782}
ATTITUDE {time_boot_ms : 830009, roll : -0.08860468864440918, pitch : -0.023129452019929886, yaw : -2.2101995944976807, rollspeed : 0.0005747904069721699, pitchspeed : -0.0008300714544020593, yawspeed : -0.0004973980248905718}
ATTITUDE {time_boot_ms : 830059, roll : -0.08858651667833328, pitch : -0.023198876529932022, yaw : -2.210212230682373, rollspeed : -0.000356932170689106, pitchspeed : -0.0020010992884635925, yawspeed : -0.0007861953345127404}
ATTITUDE {time_boot_ms : 830109, roll : -0.08856359124183655, pitch : -0.023238983005285263, yaw : -2.2102386951446533, rollspeed : 0.0005893483757972717, pitchspeed : -0.0004924669628962874, yawspeed : -0.0007657901151105762}
ATTITUDE {time_boot_ms : 830159, roll : -0.0885554775595665, pitch : -0.02316083014011383, yaw : -2.210228204727173, rollspeed : 0.00014562765136361122, pitchspeed : 0.002040300751104951, yawspeed : 0.0004713997186627239}
ATTITUDE {time_boot_ms : 830210, roll : -0.08858457952737808, pitch : -0.02312440052628517, yaw : -2.210230827331543, rollspeed : -0.0006596772000193596, pitchspeed : 0.00030438523390330374, yawspeed : -0.00014159653801470995}
ATTITUDE {time_boot_ms : 830259, roll : -0.08858125656843185, pitch : -0.02315676584839821, yaw : -2.2102296352386475, rollspeed : -0.00020700530149042606, pitchspeed : -0.0012555398279801011, yawspeed : -0.0003371110651642084}
ATTITUDE {time_boot_ms : 830309, roll : -0.08854936063289642, pitch : -0.023179128766059875, yaw : -2.210228443145752, rollspeed : 0.0007482368964701891, pitchspeed : 8.260540198534727e-07, yawspeed : -0.0004835814470425248}
ATTITUDE {time_boot_ms : 830359, roll : -0.08856309950351715, pitch : -0.023204587399959564, yaw : -2.2102370262145996, rollspeed : 0.00019973330199718475, pitchspeed : -0.0003691081947181374, yawspeed : -7.232249481603503e-05}
ATTITUDE {time_boot_ms : 830409, roll : -0.08855871856212616, pitch : -0.023225586861371994, yaw : -2.2102456092834473, rollspeed : -0.000660712830722332, pitchspeed : -0.00046451331581920385, yawspeed : -0.0003852866357192397}
ATTITUDE {time_boot_ms : 830459, roll : -0.08856067806482315, pitch : -0.023197893053293228, yaw : -2.2102227210998535, rollspeed : -0.0003734596539288759, pitchspeed : 0.0011426120763644576, yawspeed : 0.0012075159465894103}
ATTITUDE {time_boot_ms : 830509, roll : -0.08855576068162918, pitch : -0.023181643337011337, yaw : -2.210212230682373, rollspeed : -0.00031787133775651455, pitchspeed : -8.934439392760396e-05, yawspeed : 0.0007363815675489604}
ATTITUDE {time_boot_ms : 830559, roll : -0.0885869711637497, pitch : -0.023257236927747726, yaw : -2.210223436355591, rollspeed : -0.0009890459477901459, pitchspeed : -0.0020140390843153, yawspeed : -0.00029913365142419934}
ATTITUDE {time_boot_ms : 830609, roll : -0.08856762200593948, pitch : -0.023302409797906876, yaw : -2.210235834121704, rollspeed : 2.067815512418747e-05, pitchspeed : -0.0004871370329055935, yawspeed : -0.0003430038341321051}
ATTITUDE {time_boot_ms : 830660, roll : -0.08857330679893494, pitch : -0.023219626396894455, yaw : -2.2102324962615967, rollspeed : -0.00016374140977859497, pitchspeed : 0.0019423128105700016, yawspeed : 0.0008716078009456396}
ATTITUDE {time_boot_ms : 830709, roll : -0.08856748044490814, pitch : -0.02305695042014122, yaw : -2.210249423980713, rollspeed : 0.00036984251346439123, pitchspeed : 0.002878459170460701, yawspeed : -9.273790055885911e-05}
ATTITUDE {time_boot_ms : 830760, roll : -0.08852799236774445, pitch : -0.02304607257246971, yaw : -2.210231304168701, rollspeed : 0.001347993384115398, pitchspeed : -0.0009740657988004386, yawspeed : 5.6041404604911804e-05}
ATTITUDE {time_boot_ms : 830809, roll : -0.08850312978029251, pitch : -0.023054633289575577, yaw : -2.210263252258301, rollspeed : -0.00013955635949969292, pitchspeed : 0.0012068279320374131, yawspeed : -0.00027504219906404614}
ATTITUDE {time_boot_ms : 830859, roll : -0.08854016661643982, pitch : -0.022980257868766785, yaw : -2.2102513313293457, rollspeed : -0.00018556439317762852, pitchspeed : 0.0013030944392085075, yawspeed : 0.0007529700524173677}
ATTITUDE {time_boot_ms : 830909, roll : -0.0884723886847496, pitch : -0.022867735475301743, yaw : -2.210266590118408, rollspeed : 0.000473098480142653, pitchspeed : 0.0017544329166412354, yawspeed : 0.00012151821283623576}
ATTITUDE {time_boot_ms : 830959, roll : -0.08843161165714264, pitch : -0.02272973209619522, yaw : -2.2102723121643066, rollspeed : 0.00030578800942748785, pitchspeed : 0.0022145803086459637, yawspeed : 0.00020626315381377935}
ATTITUDE {time_boot_ms : 831010, roll : -0.08847738057374954, pitch : -0.022550318390130997, yaw : -2.210298538208008, rollspeed : -0.0019411547109484673, pitchspeed : 0.003335803747177124, yawspeed : -0.00018290948355570436}
ATTITUDE {time_boot_ms : 831060, roll : -0.0884854719042778, pitch : -0.02248449996113777, yaw : -2.2103257179260254, rollspeed : 0.0002534184604883194, pitchspeed : 0.0001746626803651452, yawspeed : -0.00025938794715330005}
ATTITUDE {time_boot_ms : 831109, roll : -0.08846098184585571, pitch : -0.02254972606897354, yaw : -2.2103168964385986, rollspeed : 0.000576909864321351, pitchspeed : -0.0021914595272392035, yawspeed : 0.00011677230941131711}
ATTITUDE {time_boot_ms : 831159, roll : -0.08846554905176163, pitch : -0.022585555911064148, yaw : -2.2103521823883057, rollspeed : -0.00043920683674514294, pitchspeed : -0.0003514536074362695, yawspeed : -0.0007676754612475634}
ATTITUDE {time_boot_ms : 831209, roll : -0.08849459886550903, pitch : -0.022599216550588608, yaw : -2.210357666015625, rollspeed : -0.000525991665199399, pitchspeed : -0.0011195597471669316, yawspeed : 7.037789328023791e-05}
ATTITUDE {time_boot_ms : 831259, roll : -0.08842174708843231, pitch : -0.022649358958005905, yaw : -2.2103781700134277, rollspeed : 0.001285157399252057, pitchspeed : -0.0008976684184744954, yawspeed : -0.000671715650241822}
ATTITUDE {time_boot_ms : 831309, roll : -0.0884111300110817, pitch : -0.02270926907658577, yaw : -2.210387945175171, rollspeed : 0.0009540694300085306, pitchspeed : -0.0009012841619551182, yawspeed : -0.00020068412413820624}
ATTITUDE {time_boot_ms : 831359, roll : -0.08838734775781631, pitch : -0.02276613563299179, yaw : -2.2103829383850098, rollspeed : 0.00035737850703299046, pitchspeed : -0.000994637724943459, yawspeed : 0.0007990088779479265}
ATTITUDE {time_boot_ms : 831410, roll : -0.0883990079164505, pitch : -0.022798851132392883, yaw : -2.2103958129882812, rollspeed : -6.932485848665237e-05, pitchspeed : 8.865496783982962e-05, yawspeed : -0.0004876826424151659}
ATTITUDE {time_boot_ms : 831460, roll : -0.08842580765485764, pitch : -0.02278253436088562, yaw : -2.2103991508483887, rollspeed : -0.0011131882201880217, pitchspeed : 0.0006970579270273447, yawspeed : 0.0003642412484623492}
ATTITUDE {time_boot_ms : 831510, roll : -0.08843831717967987, pitch : -0.022741097956895828, yaw : -2.21041202545166, rollspeed : -0.00015673134475946426, pitchspeed : 0.0005978711415082216, yawspeed : -1.2331001926213503e-05}
ATTITUDE {time_boot_ms : 831562, roll : -0.08844754844903946, pitch : -0.022794347256422043, yaw : -2.210402011871338, rollspeed : -0.0005919716786593199, pitchspeed : -0.0013277303660288453, yawspeed : -6.865401519462466e-05}
ATTITUDE {time_boot_ms : 831610, roll : -0.08846046030521393, pitch : -0.02282722294330597, yaw : -2.2103967666625977, rollspeed : -0.000752562889829278, pitchspeed : -0.0007128249853849411, yawspeed : 0.0009615789167582989}
ATTITUDE {time_boot_ms : 831660, roll : -0.0884614884853363, pitch : -0.022859446704387665, yaw : -2.210395097732544, rollspeed : 0.00018758932128548622, pitchspeed : -0.0005669628735631704, yawspeed : -0.0002480734256096184}
ATTITUDE {time_boot_ms : 831710, roll : -0.08843425661325455, pitch : -0.02285318449139595, yaw : -2.210406541824341, rollspeed : -0.00011527142487466335, pitchspeed : -1.3712357031181455e-05, yawspeed : -0.00015573558630421758}
ATTITUDE {time_boot_ms : 831760, roll : -0.08839738368988037, pitch : -0.02290882170200348, yaw : -2.2104077339172363, rollspeed : 0.0006524871569126844, pitchspeed : -0.001299299648962915, yawspeed : 0.00025347020709887147}
ATTITUDE {time_boot_ms : 831810, roll : -0.0884210392832756, pitch : -0.02292109653353691, yaw : -2.2104077339172363, rollspeed : -0.00029017357155680656, pitchspeed : -0.00011823611566796899, yawspeed : 0.00016076007159426808}
ATTITUDE {time_boot_ms : 831860, roll : -0.088407002389431, pitch : -0.022927958518266678, yaw : -2.210409164428711, rollspeed : 0.00022965180687606335, pitchspeed : -0.00010239204857498407, yawspeed : 0.0002342853113077581}
ATTITUDE {time_boot_ms : 831915, roll : -0.08841902762651443, pitch : -0.022918518632650375, yaw : -2.210416316986084, rollspeed : 2.8138980269432068e-05, pitchspeed : -0.00024727164418436587, yawspeed : -0.00041890464490279555}
ATTITUDE {time_boot_ms : 831960, roll : -0.088394396007061, pitch : -0.02292439341545105, yaw : -2.210416316986084, rollspeed : 0.0005423105321824551, pitchspeed : -0.0004797444271389395, yawspeed : 0.00024721899535506964}
ATTITUDE {time_boot_ms : 832010, roll : -0.0883866399526596, pitch : -0.022903956472873688, yaw : -2.210416316986084, rollspeed : -6.409198977053165e-05, pitchspeed : 0.000571494922041893, yawspeed : 0.0006779774557799101}
ATTITUDE {time_boot_ms : 832060, roll : -0.08837643265724182, pitch : -0.022887926548719406, yaw : -2.210395336151123, rollspeed : -0.0002654015552252531, pitchspeed : 5.570973735302687e-05, yawspeed : 0.0007944767130538821}
ATTITUDE {time_boot_ms : 832110, roll : -0.08837636560201645, pitch : -0.022881247103214264, yaw : -2.21040415763855, rollspeed : -0.0001329637598246336, pitchspeed : 5.361836520023644e-05, yawspeed : -1.5642319340258837e-05}
ATTITUDE {time_boot_ms : 832160, roll : -0.08839868754148483, pitch : -0.02287878468632698, yaw : -2.2104227542877197, rollspeed : -8.259061723947525e-05, pitchspeed : 0.00010691625357139856, yawspeed : -0.0003019306459464133}
ATTITUDE {time_boot_ms : 832210, roll : -0.0884217694401741, pitch : -0.022825416177511215, yaw : -2.2104220390319824, rollspeed : -0.0005322317592799664, pitchspeed : 0.0010703883599489927, yawspeed : 0.00021289457799866796}
ATTITUDE {time_boot_ms : 832260, roll : -0.08841077238321304, pitch : -0.022798798978328705, yaw : -2.2103934288024902, rollspeed : 0.0005656402790918946, pitchspeed : 0.00026601419085636735, yawspeed : 0.0008833474712446332}
ATTITUDE {time_boot_ms : 832310, roll : -0.08840159326791763, pitch : -0.022822681814432144, yaw : -2.2103941440582275, rollspeed : 0.00017412425950169563, pitchspeed : -0.00043111119884997606, yawspeed : 0.0006179358460940421}
ATTITUDE {time_boot_ms : 832360, roll : -0.08840333670377731, pitch : -0.022852018475532532, yaw : -2.210390090942383, rollspeed : 3.5025179386138916e-05, pitchspeed : -0.0006937106954865158, yawspeed : -0.00016874406719580293}
ATTITUDE {time_boot_ms : 832410, roll : -0.0883897989988327, pitch : -0.022873718291521072, yaw : -2.210404634475708, rollspeed : 0.00039551162626594305, pitchspeed : -0.0008425991982221603, yawspeed : 0.00042580184526741505}
ATTITUDE {time_boot_ms : 832460, roll : -0.08836241066455841, pitch : -0.022932540625333786, yaw : -2.2103934288024902, rollspeed : 0.0009723380208015442, pitchspeed : -0.0020642313174903393, yawspeed : 0.0003163143992424011}
ATTITUDE {time_boot_ms : 832510, roll : -0.08835531026124954, pitch : -0.022990338504314423, yaw : -2.2104053497314453, rollspeed : 0.00012349628377705812, pitchspeed : -0.0010262023424729705, yawspeed : -0.00011514819925650954}
ATTITUDE {time_boot_ms : 832560, roll : -0.08835726976394653, pitch : -0.02296449989080429, yaw : -2.21041202545166, rollspeed : 0.00013362022582441568, pitchspeed : 0.0007356530986726284, yawspeed : -0.00046516850125044584}
ATTITUDE {time_boot_ms : 832610, roll : -0.08839273452758789, pitch : -0.022929374128580093, yaw : -2.2103848457336426, rollspeed : -0.0009655600879341364, pitchspeed : 0.0006344035500660539, yawspeed : 0.000916653370950371}
ATTITUDE {time_boot_ms : 832660, roll : -0.08838451653718948, pitch : -0.022923946380615234, yaw : -2.210409641265869, rollspeed : -0.0004205598961561918, pitchspeed : -0.00018958051805384457, yawspeed : 0.00015764485578984022}
ATTITUDE {time_boot_ms : 832710, roll : -0.08837370574474335, pitch : -0.022942595183849335, yaw : -2.210409641265869, rollspeed : 0.00021473714150488377, pitchspeed : -0.0005572466179728508, yawspeed : 0.000562535657081753}
ATTITUDE {time_boot_ms : 832762, roll : -0.08837468922138214, pitch : -0.022928260266780853, yaw : -2.210425853729248, rollspeed : -0.0003516238648444414, pitchspeed : 0.00015509479271713644, yawspeed : 9.47260414250195e-05}
ATTITUDE {time_boot_ms : 832810, roll : -0.08837221562862396, pitch : -0.0229082852602005, yaw : -2.2104578018188477, rollspeed : 0.00028663710691034794, pitchspeed : 0.0004177453520242125, yawspeed : -0.0006053013494238257}
ATTITUDE {time_boot_ms : 832860, roll : -0.08834438025951385, pitch : -0.022924061864614487, yaw : -2.2104456424713135, rollspeed : 0.0007118502398952842, pitchspeed : -0.0005929907783865929, yawspeed : -5.3384515922516584e-05}
ATTITUDE {time_boot_ms : 832912, roll : -0.0883343368768692, pitch : -0.022909004241228104, yaw : -2.21045184135437, rollspeed : 0.0004692168440669775, pitchspeed : 0.00034821315784938633, yawspeed : -5.169241921976209e-05}
ATTITUDE {time_boot_ms : 832960, roll : -0.08833488821983337, pitch : -0.022921215742826462, yaw : -2.210440158843994, rollspeed : -0.00025273440405726433, pitchspeed : -0.00045893003698438406, yawspeed : -0.00012983829947188497}
ATTITUDE {time_boot_ms : 833010, roll : -0.08834780007600784, pitch : -0.022938724607229233, yaw : -2.2104477882385254, rollspeed : 0.0004883912624791265, pitchspeed : -0.0006843660376034677, yawspeed : -0.00029854162130504847}
ATTITUDE {time_boot_ms : 833060, roll : -0.0883488804101944, pitch : -0.02295869216322899, yaw : -2.2104339599609375, rollspeed : -0.000342406565323472, pitchspeed : -0.0002775715838652104, yawspeed : 0.0006516459980048239}
ATTITUDE {time_boot_ms : 833110, roll : -0.08835379779338837, pitch : -0.022936131805181503, yaw : -2.2104244232177734, rollspeed : -0.0002768966369330883, pitchspeed : 0.0004078370984643698, yawspeed : 0.0007903720252215862}
ATTITUDE {time_boot_ms : 833160, roll : -0.08833189308643341, pitch : -0.02291709929704666, yaw : -2.2104177474975586, rollspeed : 0.0001856092130765319, pitchspeed : 1.082196831703186e-06, yawspeed : 0.0001161472755484283}
ATTITUDE {time_boot_ms : 833210, roll : -0.08833438158035278, pitch : -0.022929422557353973, yaw : -2.2104077339172363, rollspeed : 0.0005244527710601687, pitchspeed : -0.0007518986240029335, yawspeed : 0.00027979386504739523}
ATTITUDE {time_boot_ms : 833262, roll : -0.08831094950437546, pitch : -0.022931192070245743, yaw : -2.2104332447052, rollspeed : -7.323292084038258e-05, pitchspeed : -0.00011316160089336336, yawspeed : -0.000872913165949285}
ATTITUDE {time_boot_ms : 833310, roll : -0.0883137509226799, pitch : -0.022940650582313538, yaw : -2.2104547023773193, rollspeed : 0.0004759680014103651, pitchspeed : -0.00027897924883291125, yawspeed : -0.0002749405102804303}
ATTITUDE {time_boot_ms : 833360, roll : -0.08829322457313538, pitch : -0.022952962666749954, yaw : -2.2104930877685547, rollspeed : 0.0005310485139489174, pitchspeed : -0.00035695338738150895, yawspeed : -0.0008608821663074195}
ATTITUDE {time_boot_ms : 833410, roll : -0.08827317506074905, pitch : -0.0229264497756958, yaw : -2.210489273071289, rollspeed : -0.0006708831060677767, pitchspeed : 0.0011115018278360367, yawspeed : 0.00015743222320452332}
ATTITUDE {time_boot_ms : 833460, roll : -0.08827008306980133, pitch : -0.022886160761117935, yaw : -2.210495710372925, rollspeed : -0.00041618430987000465, pitchspeed : 0.0012091882526874542, yawspeed : 0.0005106457974761724}
ATTITUDE {time_boot_ms : 833510, roll : -0.08828386664390564, pitch : -0.022864431142807007, yaw : -2.210529088973999, rollspeed : 0.00027200381737202406, pitchspeed : -0.0003202777006663382, yawspeed : -0.0006250261212699115}
ATTITUDE {time_boot_ms : 833560, roll : -0.08829442411661148, pitch : -0.022905010730028152, yaw : -2.2105348110198975, rollspeed : -0.0003816897515207529, pitchspeed : -0.0007703336887061596, yawspeed : -0.00012338056694716215}
ATTITUDE {time_boot_ms : 833610, roll : -0.08830571919679642, pitch : -0.022921670228242874, yaw : -2.210531234741211, rollspeed : -0.0012665183749049902, pitchspeed : -0.0004247004399076104, yawspeed : 9.302794933319092e-05}
ATTITUDE {time_boot_ms : 833660, roll : -0.08829102665185928, pitch : -0.02292361855506897, yaw : -2.210541009902954, rollspeed : 0.001263561425730586, pitchspeed : -0.0005099878180772066, yawspeed : -5.274196155369282e-05}
ATTITUDE {time_boot_ms : 833709, roll : -0.08826354891061783, pitch : -0.022890549153089523, yaw : -2.210556745529175, rollspeed : 0.00021090393420308828, pitchspeed : 0.0007385031785815954, yawspeed : -0.0007022214704193175}
ATTITUDE {time_boot_ms : 833759, roll : -0.08824599534273148, pitch : -0.022874955087900162, yaw : -2.2105894088745117, rollspeed : 0.001198377925902605, pitchspeed : 0.00013532322191167623, yawspeed : -0.0007629557512700558}
ATTITUDE {time_boot_ms : 833810, roll : -0.08823013305664062, pitch : -0.022878777235746384, yaw : -2.2105965614318848, rollspeed : 0.000727569218724966, pitchspeed : 0.00019030930707231164, yawspeed : 8.02123686298728e-05}
ATTITUDE {time_boot_ms : 833861, roll : -0.0882563441991806, pitch : -0.022871393710374832, yaw : -2.2105913162231445, rollspeed : -0.0006791686173528433, pitchspeed : 0.0003752319316845387, yawspeed : -7.147900760173798e-05}
ATTITUDE {time_boot_ms : 833912, roll : -0.08827696740627289, pitch : -0.0228755921125412, yaw : -2.2105727195739746, rollspeed : 0.0001372395781800151, pitchspeed : -0.0008600089931860566, yawspeed : 0.0007288180640898645}
ATTITUDE {time_boot_ms : 833959, roll : -0.08826063573360443, pitch : -0.022887513041496277, yaw : -2.210592031478882, rollspeed : 0.0005647358484566212, pitchspeed : -0.0001010713167488575, yawspeed : 0.00013301847502589226}
ATTITUDE {time_boot_ms : 834009, roll : -0.08825579285621643, pitch : -0.022869668900966644, yaw : -2.2106053829193115, rollspeed : -0.00033096526749432087, pitchspeed : 0.0001998776861000806, yawspeed : -0.0005281963967718184}
ATTITUDE {time_boot_ms : 834065, roll : -0.08824329078197479, pitch : -0.022845018655061722, yaw : -2.2106144428253174, rollspeed : 0.0001483708620071411, pitchspeed : 0.0006763764540664852, yawspeed : -1.985830022022128e-05}
ATTITUDE {time_boot_ms : 834109, roll : -0.08825672417879105, pitch : -0.022838298231363297, yaw : -2.2106292247772217, rollspeed : -5.6461431086063385e-06, pitchspeed : -0.00013952594599686563, yawspeed : -0.00011933845235034823}
ATTITUDE {time_boot_ms : 834159, roll : -0.08825035393238068, pitch : -0.02281128615140915, yaw : -2.210632085800171, rollspeed : 0.000303841894492507, pitchspeed : 0.0008812763262540102, yawspeed : 4.9152644351124763e-05}
ATTITUDE {time_boot_ms : 834210, roll : -0.08827365934848785, pitch : -0.02275804430246353, yaw : -2.2106220722198486, rollspeed : -0.0005061989650130272, pitchspeed : 0.0007215364021249115, yawspeed : 0.0004627027956303209}
ATTITUDE {time_boot_ms : 834259, roll : -0.0882851853966713, pitch : -0.022810548543930054, yaw : -2.2106094360351562, rollspeed : -8.705304935574532e-05, pitchspeed : -0.0013557883212342858, yawspeed : 0.0002018928062170744}
ATTITUDE {time_boot_ms : 834309, roll : -0.08828343451023102, pitch : -0.0228709876537323, yaw : -2.2105932235717773, rollspeed : 0.0004497396294027567, pitchspeed : -0.0003066495119128376, yawspeed : 0.00030726450495421886}
ATTITUDE {time_boot_ms : 834359, roll : -0.08826781809329987, pitch : -0.022836722433567047, yaw : -2.2105560302734375, rollspeed : -0.0006159001495689154, pitchspeed : 0.0012175962328910828, yawspeed : 0.0007865161169320345}
ATTITUDE {time_boot_ms : 834409, roll : -0.08829706907272339, pitch : -0.022773507982492447, yaw : -2.2105350494384766, rollspeed : -0.0012988909147679806, pitchspeed : 0.0008464618003927171, yawspeed : 0.0005724654765799642}
ATTITUDE {time_boot_ms : 834459, roll : -0.08836625516414642, pitch : -0.02276068553328514, yaw : -2.2105190753936768, rollspeed : -0.0009141257032752037, pitchspeed : -0.0002324186498299241, yawspeed : 0.00029342586640268564}